<?xml version="1.0" encoding="utf-8"?><aws:weather xmlns:aws="http://www.aws.com/aws"><aws:station id="HST02" name="Varnett Charter School" city="Houston" state="TX" zipcode="77035" distance="1.1604" station-type="WeatherBug" latitude="29.65667" longitude="-95.46611"></aws:station><aws:station id="SHSTN" name="Samuel C. Red ES" city="Houston" state="TX" zipcode="77035" distance="1.3877" station-type="WeatherBug" latitude="29.66694" longitude="-95.45417"></aws:station><aws:station id="HSTNB" name="Braeburn ES" city="Houston" state="TX" zipcode="77081" distance="1.4630" station-type="WeatherBug" latitude="29.68667" longitude="-95.49278"></aws:station><aws:station id="ANDES" name="Anderson Elementary School" city="Houston" state="TX" zipcode="77035" distance="1.6254" station-type="WeatherBug" latitude="29.64917" longitude="-95.48806"></aws:station><aws:station id="BLLRC" name="Condit ES" city="Bellaire" state="TX" zipcode="77401" distance="2.2792" station-type="WeatherBug" latitude="29.70250" longitude="-95.46722"></aws:station><aws:station id="HSTN4" name="Sharpstown MS" city="Houston" state="TX" zipcode="77036" distance="2.7389" station-type="WeatherBug" latitude="29.68667" longitude="-95.51861"></aws:station><aws:station id="HSTCH" name="Challenge Early College" city="Houston" state="TX" zipcode="77081" distance="3.7025" station-type="WeatherBug" latitude="29.72139" longitude="-95.45722"></aws:station><aws:station id="HSTDW" name="Dowling MS" city="Houston" state="TX" zipcode="77045" distance="3.7054" station-type="WeatherBug" latitude="29.62056" longitude="-95.45472"></aws:station><aws:station id="HSSVP" name="St Vincent de Paul School" city="Houston" state="TX" zipcode="77025" distance="3.7482" station-type="WeatherBug" latitude="29.70500" longitude="-95.42861"></aws:station><aws:station id="HSTGM" name="Grady MS" city="Houston" state="TX" zipcode="77056" distance="5.5165" station-type="WeatherBug" latitude="29.75000" longitude="-95.46722"></aws:station><aws:station id="HSTMU" name="Houston Museum of Natural Science" city="Houston" state="TX" zipcode="77030" distance="5.9431" station-type="WeatherBug" latitude="29.72000" longitude="-95.39583"></aws:station><aws:station id="HSLMD" name="Almeda ES" city="Houston" state="TX" zipcode="77047" distance="5.9846" station-type="WeatherBug" latitude="29.60000" longitude="-95.41917"></aws:station><aws:station id="HSTN8" name="Hastings HS" city="Houston" state="TX" zipcode="77072" distance="7.1001" station-type="WeatherBug" latitude="29.70889" longitude="-95.58667"></aws:station><aws:station id="HSTDA" name="Duchesne Academy" city="Houston" state="TX" zipcode="77024" distance="7.1743" station-type="WeatherBug" latitude="29.77389" longitude="-95.48917"></aws:station><aws:station id="HSOTX" name="The Regis School" city="Houston" state="TX" zipcode="77055" distance="7.8333" station-type="WeatherBug" latitude="29.78389" longitude="-95.48194"></aws:station><aws:station id="HSTKL" name="Kelso ES" city="Houston" state="TX" zipcode="77033" distance="7.8702" station-type="WeatherBug" latitude="29.67306" longitude="-95.34583"></aws:station><aws:station id="KHOUT" name="KHOU-TV" city="Houston" state="TX" zipcode="77019" distance="7.8738" station-type="WeatherBug" latitude="29.75333" longitude="-95.38667"></aws:station><aws:station id="AWTY1" name="The Awty International School" city="Houston" state="TX" zipcode="77055" distance="8.1254" station-type="WeatherBug" latitude="29.78722" longitude="-95.45944"></aws:station><aws:station id="AHSTN" name="Askew ES" city="Houston" state="TX" zipcode="77077" distance="8.1732" station-type="WeatherBug" latitude="29.75139" longitude="-95.57639"></aws:station><aws:station id="HSTAS" name="Ashford Primary" city="Houston" state="TX" zipcode="77077" distance="8.2992" station-type="WeatherBug" latitude="29.73972" longitude="-95.59000"></aws:station><aws:station id="HSTKM" name="Killough MS" city="Houston" state="TX" zipcode="77083" distance="8.4648" station-type="WeatherBug" latitude="29.69417" longitude="-95.61528"></aws:station><aws:station id="ALSTN" name="Air Liquide America" city="Houston" state="TX" zipcode="77008" distance="8.6029" station-type="WeatherBug" latitude="29.79111" longitude="-95.44083"></aws:station><aws:station id="HSGHC" name="Greater Harris County 911" city="Houston" state="TX" zipcode="77007" distance="8.6471" station-type="WeatherBug" latitude="29.76389" longitude="-95.38083"></aws:station><aws:station id="HSTHH" name="Houston Heights Learning Academy" city="Houston" state="TX" zipcode="77007" distance="8.9810" station-type="WeatherBug" latitude="29.78500" longitude="-95.40583"></aws:station><aws:station id="HUTON" name="University of Houston Observatory-Main Campus" city="Houston" state="TX" zipcode="77204" distance="9.1560" station-type="WeatherBug" latitude="29.72278" longitude="-95.33667"></aws:station></aws:weather>